[{"name": "COMEBUY Bubble Tea Markham", "lat": 43.8506661, "lng": -79.3256004, "place_id": "ChIJnfW7RSvV1IkRvVlUSBHb8SA", "address": "8110 Birchmount Rd #4, Markham"}, {"name": "OneZo Tapioca \u4e38\u4f5c", "lat": 43.8539511, "lng": -79.3374889, "place_id": "ChIJpcizibLV1IkRXCemDJOKpgY", "address": "3621 Hwy 7 Unit 120, Markham"}, {"name": "Chatime", "lat": 43.8488834, "lng": -79.323605, "place_id": "ChIJ81T7HEXU1IkRAJHHwEP6NqE", "address": "169 Enterprise Blvd l106, Markham"}, {"name": "Presotea \u9bae\u8336\u9053", "lat": 43.8495697, "lng": -79.3472475, "place_id": "ChIJDcIJCO7U1IkRHv5HVZonmUM", "address": "3255 Hwy 7 F253, Markham"}, {"name": "M Ch\u00e1 Bar", "lat": 43.8539477, "lng": -79.33766399999999, "place_id": "ChIJYSmwJObV1IkRsu0vyXMZ9xo", "address": "3621 Hwy 7 #122, Markham"}, {"name": "The Alley", "lat": 43.8656559, "lng": -79.31097439999999, "place_id": "ChIJ1e7zkcnV1IkRvjnQTe9ftT0", "address": "142 Main St Unionville, Unionville"}, {"name": "Ba Cha", "lat": 43.8560509, "lng": -79.304304, "place_id": "ChIJETfuTNjV1IkR6yqSfAuaisc", "address": "8321 Kennedy Rd, Unionville"}, {"name": "Real Fruit Bubble Tea", "lat": 43.8686459, "lng": -79.3120538, "place_id": "ChIJtRF6GMjV1IkRk40RrgGYSbI", "address": "209 1 Main St Unionville #1, Unionville"}, {"name": "CoCo Fresh Tea & Juice", "lat": 43.8583176, "lng": -79.3324102, "place_id": "ChIJ986j6F7V1IkRM7kooBckiI4", "address": "8601 Warden Ave. Unit 10, Markham"}, {"name": "TRU TEA | \u521d\u8336", "lat": 43.8412527, "lng": -79.3992092, "place_id": "ChIJSTQBvOYrK4gRDuE6XO7tO9s", "address": "101-330 Hwy 7, Richmond Hill"}, {"name": "Boba Boy", "lat": 43.8048784, "lng": -79.2880338, "place_id": "ChIJsfSeF1_R1IkREnQguuFT7bQ", "address": "Scarborough"}, {"name": "CoCo Fresh Tea & Juice", "lat": 43.8604425, "lng": -79.30502080000001, "place_id": "ChIJ7ace0MzV1IkRHrXnER8vKjM", "address": "8360 Kennedy Rd b15, Unionville"}, {"name": "The Alley", "lat": 43.8238834, "lng": -79.3269412, "place_id": "ChIJL3_Zf4fT1IkR72Ch2rG0xzI", "address": "30 Gibson Dr Unit 118, Markham"}, {"name": "Gong Cha Unionville", "lat": 43.8604894, "lng": -79.3044317, "place_id": "ChIJu-fUGmrV1IkRleWPBp-cMGk", "address": "8380 Kennedy Rd Unit #C7, Unionville"}, {"name": "Bubble Tea & Me", "lat": 43.8063866, "lng": -79.42353390000001, "place_id": "ChIJGQ1WD_csK4gRpp-wMikV6wI", "address": "7330 Yonge St #107, Thornhill"}, {"name": "YoTea Canada", "lat": 43.8422429, "lng": -79.3056849, "place_id": "ChIJo_RA1RXV1IkRCXVx8IIPyY4", "address": "7710 Kennedy Rd, Markham"}, {"name": "Kung Fu Tea on Birchmount", "lat": 43.8568796, "lng": -79.3245949, "place_id": "ChIJuaQqmxzV1IkRTWgoObxAtmw", "address": "8200 Birchmount Rd Unit L, Markham"}, {"name": "Real Fruit Bubble Tea", "lat": 43.8696023, "lng": -79.28699639999999, "place_id": "ChIJM5fuEQDX1IkRpZKVbYjeJs0", "address": "5000 Hwy 7, Markham"}, {"name": "Chaplus", "lat": 43.80490349999999, "lng": -79.2880558, "place_id": "ChIJs1NLjB_R1IkRCfc12Zx9U1M", "address": "3250 Midland Ave Unit G121, Scarborough"}, {"name": "Presotea", "lat": 43.8260486, "lng": -79.3058063, "place_id": "ChIJ1-GBOAnU1IkRdgsCCsiNQVI", "address": "4300 Steeles Ave E, Markham"}]