{"displayFieldName":"","fieldAliases":{"OBJECTID":"OBJECTID","id":"id","loc_lat":"loc_lat","loc_long":"loc_long","name":"name","phone":"phone","streetaddress":"streetaddress","tags_0":"tags/0","website":"website"},"geometryType":"esriGeometryPoint","spatialReference":{"wkid":4326,"latestWkid":4326},"fields":[{"name":"OBJECTID","type":"esriFieldTypeOID","alias":"OBJECTID"},{"name":"id","type":"esriFieldTypeInteger","alias":"id"},{"name":"loc_lat","type":"esriFieldTypeDouble","alias":"loc_lat"},{"name":"loc_long","type":"esriFieldTypeDouble","alias":"loc_long"},{"name":"name","type":"esriFieldTypeString","alias":"name","length":8000},{"name":"phone","type":"esriFieldTypeString","alias":"phone","length":8000},{"name":"streetaddress","type":"esriFieldTypeString","alias":"streetaddress","length":8000},{"name":"tags_0","type":"esriFieldTypeString","alias":"tags/0","length":8000},{"name":"website","type":"esriFieldTypeString","alias":"website","length":8000}],"features":[{"attributes":{"OBJECTID":1,"id":26801765,"loc_lat":43.668669999999999,"loc_long":-79.337329999999994,"name":"1021 Gerrard St. E","phone":"(416) 900-2236","streetaddress":"1021 Gerrard Street East, Toronto, ON M4M 1Z6","tags_0":"toronto","website":"https://gosnappy.io/owa/snappy/detail/G2991/3029/m/menu_60"},"geometry":{"x":-79.337329999999952,"y":43.668670000000077}},{"attributes":{"OBJECTID":2,"id":27441622,"loc_lat":43.810929999999999,"loc_long":-79.453639999999993,"name":"11 Disera Dr","phone":"(905) 731-9988","streetaddress":"260-11 Disera Dr. Thornhill, ON L4J 0A7","tags_0":"thornhill","website":"https://gosnappy.io/owa/snappy/detail/G2991/3033/m/menu_60"},"geometry":{"x":-79.45363999999995,"y":43.810930000000042}},{"attributes":{"OBJECTID":3,"id":26802226,"loc_lat":43.394109,"loc_long":-79.790926999999996,"name":"2000 Appleby Line","phone":"(289) 337-8851","streetaddress":"G05-2000 Appleby Line, Burlington, ON L7L 6M6","tags_0":"burlington","website":"https://gosnappy.io/owa/snappy/detail/G2991/3030/m/menu_60"},"geometry":{"x":-79.790926999999954,"y":43.394109000000071}},{"attributes":{"OBJECTID":4,"id":26536279,"loc_lat":43.714354,"loc_long":-79.722845000000007,"name":"25 Peel Centre Dr","phone":"(905) 581-7768","streetaddress":"25 Peel Centre Dr. Unit F5, Brampton, ON L6T 3R5, Canada","tags_0":"Brampton","website":"https://gosnappy.io/owa/snappy/detail/G2991/3008/"},"geometry":{"x":-79.72284499999995,"y":43.714354000000071}},{"attributes":{"OBJECTID":5,"id":26536274,"loc_lat":43.829093,"loc_long":-79.537175000000005,"name":"3175 Rutherford ","phone":"(905) 597 6678","streetaddress":"3175 Rutherford Rd, Unit 60, Concord, ON L4K 5Y6, Canada","tags_0":"Vaughan","website":"https://gosnappy.io/owa/snappy/detail/G2991/3023/m/menu_60"},"geometry":{"x":-79.537174999999934,"y":43.829093000000057}},{"attributes":{"OBJECTID":6,"id":26536255,"loc_lat":43.649254999999997,"loc_long":-79.395443999999998,"name":"352 Queen St W","phone":"(416) 977-9090","streetaddress":"352 Queen St W, Toronto, ON M5V 2A2, Canada","tags_0":"Toronto","website":"https://gosnappy.io/owa/snappy/detail/G2991/2992/"},"geometry":{"x":-79.395443999999941,"y":43.649255000000039}},{"attributes":{"OBJECTID":7,"id":26536257,"loc_lat":43.658732000000001,"loc_long":-79.382180000000005,"name":"372 Yonge St","phone":"(416) 348-0888","streetaddress":"372 Yonge St, Toronto, ON M5B 1S6, Canada","tags_0":"Toronto","website":"https://gosnappy.io/owa/snappy/detail/G2991/2994/"},"geometry":{"x":-79.382179999999948,"y":43.658732000000043}},{"attributes":{"OBJECTID":8,"id":32764259,"loc_lat":43.649979999999999,"loc_long":-79.528099999999995,"name":"4868 Dundas St W","phone":"(416) 231-7888","streetaddress":"4868 Dundas St W Etobicoke ON M9A 1B5 Canada","tags_0":"Etobicoke","website":"https://gosnappy.io/owa/snappy/detail/G2991/3046/m/menu_60"},"geometry":{"x":-79.528099999999938,"y":43.649980000000028}},{"attributes":{"OBJECTID":9,"id":26536271,"loc_lat":43.889259000000003,"loc_long":-79.314898999999997,"name":"50 Bur Oak","phone":"(905) 534-8867","streetaddress":"50 Bur Oak Ave, Unit 8, Markham, ON L6C 0A2, Canada","tags_0":"Markham","website":"https://gosnappy.io/owa/snappy/detail/G2991/3002/"},"geometry":{"x":-79.314898999999969,"y":43.889259000000038}},{"attributes":{"OBJECTID":10,"id":26800851,"loc_lat":43.772711000000001,"loc_long":-79.258858000000004,"name":"60 Brian Harrison Way","phone":"(647) 345-2996","streetaddress":"60 Brian Harrison Way, Unit 4, Scarborough, ON M1P 5J5","tags_0":"scarborough","website":"https://gosnappy.io/owa/snappy/detail/G2991/3031/m/menu_60"},"geometry":{"x":-79.258857999999975,"y":43.772711000000072}},{"attributes":{"OBJECTID":11,"id":26536259,"loc_lat":43.664605999999999,"loc_long":-79.414537999999993,"name":"630 Bloor St W","phone":"(416) 533-7732","streetaddress":"630 Bloor St W, Toronto, ON M6G 1K7, Canada","tags_0":"Toronto","website":"https://gosnappy.io/owa/snappy/detail/G2991/2996/"},"geometry":{"x":-79.414537999999936,"y":43.664606000000049}},{"attributes":{"OBJECTID":12,"id":26536258,"loc_lat":43.666795999999998,"loc_long":-79.385547000000003,"name":"648 Yonge","phone":"(647) 348-8181","streetaddress":"648 Yonge St, Toronto, ON M4Y 2A6, Canada","tags_0":"Toronto","website":"https://gosnappy.io/owa/snappy/detail/G2991/2995/"},"geometry":{"x":-79.385546999999974,"y":43.666796000000033}},{"attributes":{"OBJECTID":13,"id":26536268,"loc_lat":43.753641000000002,"loc_long":-79.357854000000003,"name":"808 York Mills","phone":"(647) 344-2626","streetaddress":"808 York Mills Rd., Unit 31, North York, ON M3B 1X8, Canada","tags_0":"North York","website":"https://gosnappy.io/owa/snappy/detail/G2991/3026/m/menu_60"},"geometry":{"x":-79.357853999999975,"y":43.753641000000073}},{"attributes":{"OBJECTID":14,"id":33587133,"loc_lat":43.858370000000001,"loc_long":-79.333560000000006,"name":"8601 Warden Ave.","phone":"(905) 940-6333","streetaddress":"8601 Warden Ave. Unit 10, Markham. ON L3R 0B5","tags_0":"markham","website":"https://gosnappy.io/owa/snappy/detail/G2991/3047/m/menu_60"},"geometry":{"x":-79.333559999999977,"y":43.858370000000036}},{"attributes":{"OBJECTID":15,"id":26536273,"loc_lat":43.859292000000003,"loc_long":-79.433205000000001,"name":"9555 Yonge St","phone":"(905) 237-1686","streetaddress":"9555 Yonge St, Unit 1, Richmond Hill, ON L4C 9M5, Canada","tags_0":"Richmond Hill","website":"https://gosnappy.io/owa/snappy/detail/G2991/3004/"},"geometry":{"x":-79.433204999999987,"y":43.859292000000039}},{"attributes":{"OBJECTID":16,"id":26536291,"loc_lat":43.861950999999998,"loc_long":-79.017751000000004,"name":"Ajax","phone":"(905) 619-0440","streetaddress":"145 Kingston Road East Unit 18, Ajax, ON L1S 7J4, Canada","tags_0":"Ajax","website":"https://gosnappy.io/owa/snappy/detail/G2991/3024/m/menu_60"},"geometry":{"x":-79.017750999999976,"y":43.861951000000033}},{"attributes":{"OBJECTID":17,"id":28917828,"loc_lat":44.008139999999997,"loc_long":-79.445260000000005,"name":"Aurora","phone":"(905) 726-3666","streetaddress":"4-15380 Bayview Ave. Aurora, ON L4G 7J1","tags_0":"Aurora","website":"https://gosnappy.io/owa/snappy/detail/G2991/3037/m/menu_60"},"geometry":{"x":-79.445259999999962,"y":44.008140000000026}},{"attributes":{"OBJECTID":18,"id":31788409,"loc_lat":43.615580000000001,"loc_long":-79.660600000000002,"name":"Bristol Mississauga","phone":"(905) 502-8800","streetaddress":"7-60 Bristol Rd East. Mississauga, ON L4Z 3K8","tags_0":"mississauga","website":"https://gosnappy.io/owa/snappy/detail/G2991/3041/m/menu_60"},"geometry":{"x":-79.660599999999988,"y":43.61558000000008}},{"attributes":{"OBJECTID":19,"id":26536256,"loc_lat":43.655856999999997,"loc_long":-79.398842999999999,"name":"China Town","phone":"(647) 341-2996","streetaddress":"371 Spadina Ave, Toronto, ON M5T 2G3, Canada","tags_0":"Toronto","website":"https://gosnappy.io/owa/snappy/detail/G2991/2993/"},"geometry":{"x":-79.398842999999943,"y":43.655857000000026}},{"attributes":{"OBJECTID":20,"id":26536272,"loc_lat":43.84254,"loc_long":-79.386708999999996,"name":"Commerce Gate","phone":"(905) 597-9007","streetaddress":"505 Hwy 7, Unit 5, Thornhill, ON L3T 7P6, Canada","tags_0":"Vaughan","website":"https://gosnappy.io/owa/snappy/detail/G2991/3003/"},"geometry":{"x":-79.386708999999939,"y":43.842540000000042}},{"attributes":{"OBJECTID":21,"id":26536261,"loc_lat":43.725665999999997,"loc_long":-79.341622999999998,"name":"Don Mill & Eglinton","phone":"(416) 447-8828","streetaddress":"890 Don Mills Rd, Unit 130 & 132, North York, ON M3C 1V6, Canada","tags_0":"North York","website":"https://gosnappy.io/owa/snappy/detail/G2991/2998/"},"geometry":{"x":-79.34162299999997,"y":43.725666000000047}},{"attributes":{"OBJECTID":22,"id":26536265,"loc_lat":43.771707999999997,"loc_long":-79.280372999999997,"name":"Foody World","phone":"(416) 609-3335","streetaddress":"8 William Kitchen Rd, Scarborough, ON M1P 5B7, Canada","tags_0":"Scarborough","website":"https://gosnappy.io/owa/snappy/detail/G2991/3019/"},"geometry":{"x":-79.28037299999994,"y":43.771708000000046}},{"attributes":{"OBJECTID":23,"id":32764257,"loc_lat":43.516759999999998,"loc_long":-80.203980000000001,"name":"Guelph","phone":"(519) 836-1888","streetaddress":"1219 Gordon St Guelph ON N1L 0M9 Canada","tags_0":"Guelph","website":"https://gosnappy.io/owa/snappy/detail/G2991/3044/m/menu_60"},"geometry":{"x":-80.203979999999945,"y":43.516760000000033}},{"attributes":{"OBJECTID":24,"id":26536281,"loc_lat":43.257904000000003,"loc_long":-79.925195000000002,"name":"Hamilton – 1548 Main St W","phone":"(289) 396-0888","streetaddress":"1548 Main St W, Hamilton, ON L8S 1E5, Canada","tags_0":"Hamilton","website":"https://gosnappy.io/owa/snappy/detail/G2991/3017/"},"geometry":{"x":-79.925194999999974,"y":43.257904000000053}},{"attributes":{"OBJECTID":25,"id":26536280,"loc_lat":43.254292,"loc_long":-79.866003000000006,"name":"Hamilton – 96 Main St E","phone":"(905) 521-6888","streetaddress":"96 Main St E, Hamilton, ON L8N 1G3, Canada","tags_0":"Hamilton","website":"https://gosnappy.io/owa/snappy/detail/G2991/3009/"},"geometry":{"x":-79.866002999999978,"y":43.254292000000078}},{"attributes":{"OBJECTID":26,"id":30257829,"loc_lat":43.598129999999998,"loc_long":-79.518739999999994,"name":"Humber College","phone":"(416) 255-2626","streetaddress":"3180 Lake Shore Blvd West Unit 6, Etobicoke, ON M8V 1L7","tags_0":"Etobicoke","website":"https://gosnappy.io/owa/snappy/detail/G2991/3038/m/menu_60"},"geometry":{"x":-79.51873999999998,"y":43.598130000000026}},{"attributes":{"OBJECTID":27,"id":26536266,"loc_lat":43.773615999999997,"loc_long":-79.492142000000001,"name":"Keele & Steeles W","phone":"(416) 551-2625","streetaddress":"4205 Keele St, Unit 12, North York, ON M3J 3T8, Canada","tags_0":"North York","website":"https://gosnappy.io/owa/snappy/detail/G2991/3018/"},"geometry":{"x":-79.492141999999944,"y":43.773616000000061}},{"attributes":{"OBJECTID":28,"id":32524294,"loc_lat":43.723230000000001,"loc_long":-79.288910000000001,"name":"Lebovic Scarborough","phone":"(416) 752-8889","streetaddress":"41 Lebovic Ave Unit A111, Scarborough,ON M1L 0H2","tags_0":"scarborough","website":"https://gosnappy.io/owa/snappy/detail/G2991/3043/m/menu_60"},"geometry":{"x":-79.288909999999987,"y":43.723230000000058}},{"attributes":{"OBJECTID":29,"id":26536285,"loc_lat":42.982852999999999,"loc_long":-81.292517000000004,"name":"London","phone":"(519) 473-8882","streetaddress":"654 Wonderland Rd N, London, ON N6H 3E5, Canada","tags_0":"London","website":"https://gosnappy.io/owa/snappy/detail/G2991/3013/"},"geometry":{"x":-81.292516999999975,"y":42.982853000000034}},{"attributes":{"OBJECTID":30,"id":31788410,"loc_lat":43.805599999999998,"loc_long":-79.220958999999993,"name":"Malvern (FreshLand Supermarket)","phone":"416-292-2996","streetaddress":"99-31 Tapscott Rd. Scarborough, ON M1B 4Y7","tags_0":"scarborough","website":"https://gosnappy.io/owa/snappy/detail/G2991/3042/m/menu_60"},"geometry":{"x":-79.220958999999937,"y":43.805600000000027}},{"attributes":{"OBJECTID":31,"id":26536269,"loc_lat":43.818925,"loc_long":-79.330749999999995,"name":"Metro Square","phone":"(905) 604-6963","streetaddress":"3636 Steeles Ave E, Unit 103A, Markham, ON L3R 1K9, Canada","tags_0":"Markham","website":"https://gosnappy.io/owa/snappy/detail/G2991/3001/"},"geometry":{"x":-79.330749999999966,"y":43.818925000000036}},{"attributes":{"OBJECTID":32,"id":26536263,"loc_lat":43.806539000000001,"loc_long":-79.288849999999996,"name":"Midland & Finch","phone":"(416) 546-2996","streetaddress":"3300 Midland Ave, Unit 36, Scarborough, ON M1V 4A1, Canada","tags_0":"Scarborough","website":"https://gosnappy.io/owa/snappy/detail/G2991/3000/"},"geometry":{"x":-79.288849999999968,"y":43.806539000000043}},{"attributes":{"OBJECTID":33,"id":32524782,"loc_lat":43.517384,"loc_long":-79.876124000000004,"name":"Milton","phone":"(905) 636-1889","streetaddress":"55 Ontario St S Unit D08, Milton, ON L9T 2M3","tags_0":"milton","website":"https://gosnappy.io/owa/snappy/detail/G2991/3045/m/menu_60"},"geometry":{"x":-79.876123999999948,"y":43.51738400000005}},{"attributes":{"OBJECTID":34,"id":26536277,"loc_lat":43.527383,"loc_long":-79.675022999999996,"name":"Mississauga - 2458 Dundas W","phone":"(905) 822-3262","streetaddress":"2458 Dundas St W, Unit 13B, Mississauga, ON L5K 1R8, Canada","tags_0":"Mississauga","website":"https://gosnappy.io/owa/snappy/detail/G2991/3007/"},"geometry":{"x":-79.675022999999953,"y":43.527383000000043}},{"attributes":{"OBJECTID":35,"id":26536278,"loc_lat":43.558104,"loc_long":-79.706345999999996,"name":"Mississauga - 2520 Eglinton Ave W","phone":"(905) 569-2520","streetaddress":"2520 Eglinton Ave W Unit 7, Mississauga, ON L5M 0Y4, Canada","tags_0":"Mississauga","website":"https://gosnappy.io/owa/snappy/detail/G2991/3028/m/menu_60"},"geometry":{"x":-79.70634599999994,"y":43.558104000000071}},{"attributes":{"OBJECTID":36,"id":26536275,"loc_lat":43.605666999999997,"loc_long":-79.652815000000004,"name":"Mississauga - 30 Eglinton W","phone":"(905) 232-2750","streetaddress":"30 Eglinton Ave W, Unit 6, Mississauga, ON L5R 3E7, Canada","tags_0":"Mississauga","website":"https://gosnappy.io/owa/snappy/detail/G2991/3005/"},"geometry":{"x":-79.652814999999975,"y":43.605667000000039}},{"attributes":{"OBJECTID":37,"id":26536276,"loc_lat":43.567726,"loc_long":-79.660504000000003,"name":"Mississauga - B Trust Supermarket","phone":"(905) 566-8828","streetaddress":"1177 Central Pkwy W, Unit 30, Mississauga, ON L5C 4P3, Canada","tags_0":"Mississauga","website":"https://gosnappy.io/owa/snappy/detail/G2991/3006/"},"geometry":{"x":-79.660503999999946,"y":43.56772600000005}},{"attributes":{"OBJECTID":38,"id":26536270,"loc_lat":43.859583000000001,"loc_long":-79.304772,"name":"New Kennedy Square","phone":"(905) 944-0784","streetaddress":"8360 Kennedy Rd, Unit B15, Unionville, ON L3R 9W4, Canada","tags_0":"Markham","website":"https://gosnappy.io/owa/snappy/detail/G2991/2991/"},"geometry":{"x":-79.304771999999957,"y":43.859583000000043}},{"attributes":{"OBJECTID":39,"id":26536283,"loc_lat":43.091783999999997,"loc_long":-79.074965000000006,"name":"Niagara Falls","phone":"(289) 723-0288","streetaddress":"4955 Clifton Hill, Niagara Falls, ON L2G 3N5, Canada","tags_0":"Niagara Falls","website":"https://gosnappy.io/owa/snappy/detail/G2991/3011/"},"geometry":{"x":-79.074964999999963,"y":43.091784000000075}},{"attributes":{"OBJECTID":40,"id":26536290,"loc_lat":43.942259999999997,"loc_long":-78.888397999999995,"name":"Oshawa","phone":"(905) 571-3555","streetaddress":"1800 Simcoe St N Unit 3, Oshawa, ON L1G 4X9, Canada","tags_0":"Oshawa","website":"https://gosnappy.io/owa/snappy/detail/G2991/3016/"},"geometry":{"x":-78.888397999999938,"y":43.942260000000033}},{"attributes":{"OBJECTID":41,"id":26536288,"loc_lat":45.309603000000003,"loc_long":-75.914315000000002,"name":"Ottawa – 120B Earl Grey Dr","phone":"(613) 800-0787","streetaddress":"120B Earl Grey Dr, Ottawa, ON K2T 1B6, Canada","tags_0":"Ottawa","website":"https://gosnappy.io/owa/snappy/detail/G2991/3027/m/menu_60"},"geometry":{"x":-75.914314999999988,"y":45.309603000000038}},{"attributes":{"OBJECTID":42,"id":26536287,"loc_lat":45.351680999999999,"loc_long":-75.734707999999998,"name":"Ottawa – 1568 Merivale","phone":"(613) 216-1234","streetaddress":"1568 Merivale Rd, Unit 12, Ottawa , ON K2G 3J9, Canada","tags_0":"Ottawa","website":"https://gosnappy.io/owa/snappy/detail/G2991/3015/"},"geometry":{"x":-75.734707999999955,"y":45.351681000000042}},{"attributes":{"OBJECTID":43,"id":26536289,"loc_lat":45.425576999999997,"loc_long":-75.681533999999999,"name":"Ottawa – 218A Laurier Ave E","phone":"(613) 800-3358","streetaddress":"218A Laurier Ave E, Ottawa, ON K1N 6P2, Canada","tags_0":"Ottawa","website":"https://gosnappy.io/owa/snappy/detail/G2991/3022/"},"geometry":{"x":-75.681533999999942,"y":45.425577000000033}},{"attributes":{"OBJECTID":44,"id":26536286,"loc_lat":45.415368000000001,"loc_long":-75.696717000000007,"name":"Ottawa – 290 Banks","phone":"(613) 233-1996","streetaddress":"290 Bank St, Ottawa, ON K2P 1X6, Canada","tags_0":"Ottawa","website":"https://gosnappy.io/owa/snappy/detail/G2991/3014/"},"geometry":{"x":-75.696716999999978,"y":45.415368000000058}},{"attributes":{"OBJECTID":45,"id":30257827,"loc_lat":45.335388000000002,"loc_long":-75.690704999999994,"name":"Ottawa – Airport","phone":"(613) 739-1688","streetaddress":"2-222 Hunt Club Rd. Ottawa, ON K1V 1C1","tags_0":"ottawa","website":"https://gosnappy.io/owa/snappy/detail/G2991/3039/m/menu_60"},"geometry":{"x":-75.69070499999998,"y":45.33538800000008}},{"attributes":{"OBJECTID":46,"id":28021014,"loc_lat":43.833407000000001,"loc_long":-79.089620999999994,"name":"Pickering","phone":"(905) 831-8800","streetaddress":"25-1794 Liverpool Road. Pickering, ON L1V 4G7","tags_0":"Pickering","website":"https://gosnappy.io/owa/snappy/detail/G2991/3036/m/menu_60"},"geometry":{"x":-79.089620999999966,"y":43.833407000000079}},{"attributes":{"OBJECTID":47,"id":26536282,"loc_lat":43.135533000000002,"loc_long":-79.214510000000004,"name":"St. Catharines","phone":"(905) 680-2112","streetaddress":"344 Glendale Ave, Unit B7, St. Catharines, ON L2T 4E3, Canada","tags_0":"St. Catharines","website":"https://gosnappy.io/owa/snappy/detail/G2991/3010/"},"geometry":{"x":-79.214509999999962,"y":43.135533000000066}},{"attributes":{"OBJECTID":48,"id":27441618,"loc_lat":43.832180000000001,"loc_long":-79.2667,"name":"Steeles & Middlefield","phone":"(416) 293-2666","streetaddress":"9-5651 Steeles Ave E, Scarborough, ON M1V 5P6","tags_0":"scarborough","website":"https://gosnappy.io/owa/snappy/detail/G2991/3032/m/menu_60"},"geometry":{"x":-79.266699999999958,"y":43.832180000000051}},{"attributes":{"OBJECTID":49,"id":27751269,"loc_lat":43.809600000000003,"loc_long":-79.423479999999998,"name":"Thornhill Clark","phone":"(905) 597-8266","streetaddress":"17D - 7398 Yonge St, Thornhill, ON L4J 8J2","tags_0":"thornhill","website":"https://gosnappy.io/owa/snappy/detail/G2991/3034/m/menu_60"},"geometry":{"x":-79.423479999999984,"y":43.809600000000046}},{"attributes":{"OBJECTID":50,"id":26536264,"loc_lat":43.757095999999997,"loc_long":-79.312410999999997,"name":"Victoria Park & Ellesmere","phone":"(647) 498-7988","streetaddress":"85 Ellesmere Rd, Unit 6, Toronto, ON M1R 4B8, Canada","tags_0":"Toronto","website":"https://gosnappy.io/owa/snappy/detail/G2991/3020/"},"geometry":{"x":-79.31241099999994,"y":43.757096000000047}},{"attributes":{"OBJECTID":51,"id":26536284,"loc_lat":43.472338999999998,"loc_long":-80.533848000000006,"name":"Waterloo","phone":"(519) 725-8885","streetaddress":"203 Lester St, Unit 3, Waterloo, ON N2L 3W4, Canada","tags_0":"Waterloo","website":"https://gosnappy.io/owa/snappy/detail/G2991/3012/"},"geometry":{"x":-80.533847999999978,"y":43.472339000000034}},{"attributes":{"OBJECTID":52,"id":26536267,"loc_lat":43.817700000000002,"loc_long":-79.281899999999993,"name":"Woodside Square Mall","phone":"(416) 792-3299","streetaddress":"105A-1571 Sandhurst Circle, Scarborough, ON M1V 1V2, Canada","tags_0":"Scarborough","website":"https://gosnappy.io/owa/snappy/detail/G2991/3025/m/menu_60"},"geometry":{"x":-79.281899999999951,"y":43.817700000000059}},{"attributes":{"OBJECTID":53,"id":26536260,"loc_lat":43.708509999999997,"loc_long":-79.399072000000004,"name":"Yonge & Eglinton","phone":"(647) 348-1354","streetaddress":"2352 Yonge St, Toronto, ON M4P 2E6, Canada","tags_0":"Toronto","website":"https://gosnappy.io/owa/snappy/detail/G2991/2997/"},"geometry":{"x":-79.39907199999999,"y":43.708510000000047}},{"attributes":{"OBJECTID":54,"id":26536262,"loc_lat":43.779201999999998,"loc_long":-79.417113999999998,"name":"Yonge & Finch","phone":"(416) 221-4135","streetaddress":"17B Finch Ave W, North York, ON M2N 7K4, Canada","tags_0":"North York","website":"https://gosnappy.io/owa/snappy/detail/G2991/2999/"},"geometry":{"x":-79.41711399999997,"y":43.779202000000055}}]}